[
  {
    "aemet_id": "0252D",
    "name": "Arenys de Mar",
    "region": "Barcelona",
    "lat": "41.5875",
    "lon": "2.5400"
  },
  {
    "aemet_id": "0076",
    "name": "Barcelona Aeropuerto",
    "region": "Barcelona",
    "lat": "41.2928",
    "lon": "2.0700"
  },
  {
    "aemet_id": "0200E",
    "name": "Barcelona, Fabra",
    "region": "Barcelona",
    "lat": "41.4183",
    "lon": "2.1242"
  },
  {
    "aemet_id": "0201D",
    "name": "Barcelona",
    "region": "Barcelona",
    "lat": "41.3906",
    "lon": "2.2000"
  },
  {
    "aemet_id": "0149X",
    "name": "Manresa",
    "region": "Barcelona",
    "lat": "41.7200",
    "lon": "1.8403"
  },
  {
    "aemet_id": "0229I",
    "name": "Sabadell Aeropuerto",
    "region": "Barcelona",
    "lat": "41.5236",
    "lon": "2.1031"
  },
  {
    "aemet_id": "0255B",
    "name": "Santa Susanna",
    "region": "Barcelona",
    "lat": "41.6508",
    "lon": "2.6969"
  },
  {
    "aemet_id": "0367",
    "name": "Girona Aeropuerto",
    "region": "Girona",
    "lat": "41.9117",
    "lon": "2.7633"
  },
  {
    "aemet_id": "0370B",
    "name": "Girona, Antic Institut",
    "region": "Girona",
    "lat": "41.9800",
    "lon": "2.8253"
  },
  {
    "aemet_id": "0372C",
    "name": "Porqueres",
    "region": "Girona",
    "lat": "42.1044",
    "lon": "2.7636"
  },
  {
    "aemet_id": "0324A",
    "name": "Ripoll",
    "region": "Girona",
    "lat": "42.1914",
    "lon": "2.1961"
  },
  {
    "aemet_id": "0016A",
    "name": "Reus Aeropuerto",
    "region": "Tarragona",
    "lat": "41.1450",
    "lon": "1.1636"
  },
  {
    "aemet_id": "0002I",
    "name": "Vandellòs",
    "region": "Tarragona",
    "lat": "40.9581",
    "lon": "0.8714"
  },
  {
    "aemet_id": "1387E",
    "name": "A Coruña Aeropuerto",
    "region": "A Coruña",
    "lat": "43.3069",
    "lon": "-8.3719"
  },
  {
    "aemet_id": "1387",
    "name": "A Coruña",
    "region": "A Coruña",
    "lat": "43.3658",
    "lon": "-8.4214"
  },
  {
    "aemet_id": "1393",
    "name": "Cabo Vilán",
    "region": "A Coruña",
    "lat": "43.1606",
    "lon": "-9.2108"
  },
  {
    "aemet_id": "1351",
    "name": "Estaca de Bares",
    "region": "A Coruña",
    "lat": "43.7861",
    "lon": "-7.6847"
  },
  {
    "aemet_id": "1400",
    "name": "Fisterra",
    "region": "A Coruña",
    "lat": "42.9247",
    "lon": "-9.2914"
  },
  {
    "aemet_id": "1437O",
    "name": "Monte Iroite",
    "region": "A Coruña",
    "lat": "42.7206",
    "lon": "-8.9233"
  },
  {
    "aemet_id": "1473A",
    "name": "Padrón",
    "region": "A Coruña",
    "lat": "42.7383",
    "lon": "-8.6272"
  },
  {
    "aemet_id": "1428",
    "name": "Santiago de Compostela Aeropuerto",
    "region": "A Coruña",
    "lat": "42.8881",
    "lon": "-8.4106"
  },
  {
    "aemet_id": "1475X",
    "name": "Santiago de Compostela",
    "region": "A Coruña",
    "lat": "42.8761",
    "lon": "-8.5558"
  },
  {
    "aemet_id": "1212E",
    "name": "Asturias Aeropuerto",
    "region": "Asturias",
    "lat": "43.5669",
    "lon": "-6.0442"
  },
  {
    "aemet_id": "1283U",
    "name": "Cabo Busto",
    "region": "Asturias",
    "lat": "43.5692",
    "lon": "-6.4700"
  },
  {
    "aemet_id": "1210X",
    "name": "Cabo Peñas",
    "region": "Asturias",
    "lat": "43.6558",
    "lon": "-5.8486"
  },
  {
    "aemet_id": "1331A",
    "name": "Castropol",
    "region": "Asturias",
    "lat": "43.5247",
    "lon": "-7.0314"
  },
  {
    "aemet_id": "1207U",
    "name": "Gijón, Campus",
    "region": "Asturias",
    "lat": "43.5231",
    "lon": "-5.6211"
  },
  {
    "aemet_id": "1208A",
    "name": "Gijón. la Merced",
    "region": "Asturias",
    "lat": "43.5417",
    "lon": "-5.6619"
  },
  {
    "aemet_id": "1208H",
    "name": "Gijón, Puerto",
    "region": "Asturias",
    "lat": "43.5600",
    "lon": "-5.7008"
  },
  {
    "aemet_id": "1208",
    "name": "Gijón",
    "region": "Asturias",
    "lat": "43.5389",
    "lon": "-5.6375"
  },
  {
    "aemet_id": "1183X",
    "name": "Llanes",
    "region": "Asturias",
    "lat": "43.4203",
    "lon": "-4.7481"
  },
  {
    "aemet_id": "1249I",
    "name": "Oviedo",
    "region": "Asturias",
    "lat": "43.3533",
    "lon": "-5.8742"
  },
  {
    "aemet_id": "1249X",
    "name": "Oviedo",
    "region": "Asturias",
    "lat": "43.3533",
    "lon": "-5.8742"
  },
  {
    "aemet_id": "1221D",
    "name": "Pajares-Valgrande",
    "region": "Asturias",
    "lat": "42.9786",
    "lon": "-5.7764"
  },
  {
    "aemet_id": "1542",
    "name": "Puerto de Leitariegos",
    "region": "Asturias",
    "lat": "42.9942",
    "lon": "-6.4142"
  },
  {
    "aemet_id": "1082",
    "name": "Bilbao Aeropuerto",
    "region": "Bizkaia",
    "lat": "43.2981",
    "lon": "-2.9064"
  },
  {
    "aemet_id": "1078I",
    "name": "Güeñes",
    "region": "Bizkaia",
    "lat": "43.2033",
    "lon": "-3.1047"
  },
  {
    "aemet_id": "1055B",
    "name": "Lekeitio",
    "region": "Bizkaia",
    "lat": "43.3769",
    "lon": "-2.5103"
  },
  {
    "aemet_id": "1057B",
    "name": "Machichaco",
    "region": "Bizkaia",
    "lat": "43.4539",
    "lon": "-2.7528"
  },
  {
    "aemet_id": "1059X",
    "name": "Punta Galea",
    "region": "Bizkaia",
    "lat": "43.3750",
    "lon": "-3.0217"
  },
  {
    "aemet_id": "1083L",
    "name": "Castro Urdiales",
    "region": "Cantabria",
    "lat": "43.3947",
    "lon": "-3.2339"
  },
  {
    "aemet_id": "1159",
    "name": "San Vicente de la Barquera",
    "region": "Cantabria",
    "lat": "43.3933",
    "lon": "-4.3922"
  },
  {
    "aemet_id": "1109",
    "name": "Santander Aeropuerto",
    "region": "Cantabria",
    "lat": "43.4239",
    "lon": "-3.8256"
  },
  {
    "aemet_id": "1110",
    "name": "Santander, Ciudad",
    "region": "Cantabria",
    "lat": "43.4650",
    "lon": "-3.8189"
  },
  {
    "aemet_id": "1111",
    "name": "Santander",
    "region": "Cantabria",
    "lat": "43.4911",
    "lon": "-3.8006"
  },
  {
    "aemet_id": "1111X",
    "name": "Santander",
    "region": "Cantabria",
    "lat": "43.4911",
    "lon": "-3.8006"
  },
  {
    "aemet_id": "1024E",
    "name": "Donostia/San Sebastián, Igueldo",
    "region": "Gipuzkoa",
    "lat": "43.3064",
    "lon": "-2.0411"
  },
  {
    "aemet_id": "1050J",
    "name": "Elgoibar",
    "region": "Gipuzkoa",
    "lat": "43.2094",
    "lon": "-2.4133"
  },
  {
    "aemet_id": "1014",
    "name": "Hondarribia, Malkarroa",
    "region": "Gipuzkoa",
    "lat": "43.3569",
    "lon": "-1.7922"
  },
  {
    "aemet_id": "1014A",
    "name": "San Sebastián Aeropuerto",
    "region": "Gipuzkoa",
    "lat": "43.3569",
    "lon": "-1.7922"
  },
  {
    "aemet_id": "1041A",
    "name": "Zumaia",
    "region": "Gipuzkoa",
    "lat": "43.3022",
    "lon": "-2.2511"
  },
  {
    "aemet_id": "1037Y",
    "name": "Zumarraga",
    "region": "Gipuzkoa",
    "lat": "43.0800",
    "lon": "-2.3175"
  },
  {
    "aemet_id": "1549",
    "name": "Ponferrada",
    "region": "Leon",
    "lat": "42.5639",
    "lon": "-6.6000"
  },
  {
    "aemet_id": "1505",
    "name": "Lugo Aeropuerto",
    "region": "Lugo",
    "lat": "43.1114",
    "lon": "-7.4575"
  },
  {
    "aemet_id": "1002Y",
    "name": "Baztan, Irurita",
    "region": "Navarra",
    "lat": "43.1358",
    "lon": "-1.5431"
  },
  {
    "aemet_id": "1631E",
    "name": "A Pobra de Trives",
    "region": "Ourense",
    "lat": "42.3394",
    "lon": "-7.2825"
  },
  {
    "aemet_id": "1700X",
    "name": "O Carballiño",
    "region": "Ourense",
    "lat": "42.4214",
    "lon": "-8.0925"
  },
  {
    "aemet_id": "1690B",
    "name": "Ourense,instituto",
    "region": "Ourense",
    "lat": "42.3322",
    "lon": "-7.8644"
  },
  {
    "aemet_id": "1690A",
    "name": "Ourense",
    "region": "Ourense",
    "lat": "42.3253",
    "lon": "-7.8597"
  },
  {
    "aemet_id": "1735X",
    "name": "Xinzo de Limia",
    "region": "Ourense",
    "lat": "42.0792",
    "lon": "-7.7336"
  },
  {
    "aemet_id": "1484",
    "name": "Pontevedra, Instituto",
    "region": "Pontevedra",
    "lat": "42.4306",
    "lon": "-8.6472"
  },
  {
    "aemet_id": "1484C",
    "name": "Pontevedra",
    "region": "Pontevedra",
    "lat": "42.4383",
    "lon": "-8.6158"
  },
  {
    "aemet_id": "1495",
    "name": "Vigo Aeropuerto",
    "region": "Pontevedra",
    "lat": "42.2386",
    "lon": "-8.6239"
  },
  {
    "aemet_id": "2444C",
    "name": "Ávila, Ayuntamiento",
    "region": "Avila",
    "lat": "40.6567",
    "lon": "-4.7003"
  },
  {
    "aemet_id": "2444",
    "name": "Ávila",
    "region": "Avila",
    "lat": "40.6592",
    "lon": "-4.6800"
  },
  {
    "aemet_id": "2811A",
    "name": "Navarredonda de Gredos",
    "region": "Avila",
    "lat": "40.3506",
    "lon": "-5.1431"
  },
  {
    "aemet_id": "2117D",
    "name": "Aranda de Duero",
    "region": "Burgos",
    "lat": "41.6658",
    "lon": "-3.7428"
  },
  {
    "aemet_id": "2331",
    "name": "Burgos Aeropuerto",
    "region": "Burgos",
    "lat": "42.3569",
    "lon": "-3.6203"
  },
  {
    "aemet_id": "2298",
    "name": "Palacios de la Sierra",
    "region": "Burgos",
    "lat": "41.9597",
    "lon": "-3.1317"
  },
  {
    "aemet_id": "2737E",
    "name": "Lagunas de Somoza",
    "region": "Leon",
    "lat": "42.3775",
    "lon": "-6.1967"
  },
  {
    "aemet_id": "2661B",
    "name": "León Aeropuerto",
    "region": "Leon",
    "lat": "42.5994",
    "lon": "-5.6436"
  },
  {
    "aemet_id": "2661",
    "name": "León, Virgen del Camino",
    "region": "Leon",
    "lat": "42.5883",
    "lon": "-5.6511"
  },
  {
    "aemet_id": "2630X",
    "name": "Puerto de San Isidro",
    "region": "Leon",
    "lat": "43.0622",
    "lon": "-5.3769"
  },
  {
    "aemet_id": "2462",
    "name": "Puerto de Navacerrada",
    "region": "Madrid",
    "lat": "40.7931",
    "lon": "-4.0106"
  },
  {
    "aemet_id": "2400E",
    "name": "Autilla del Pino",
    "region": "Palencia",
    "lat": "41.9956",
    "lon": "-4.6028"
  },
  {
    "aemet_id": "2374X",
    "name": "Carrión de los Condes",
    "region": "Palencia",
    "lat": "42.3508",
    "lon": "-4.6172"
  },
  {
    "aemet_id": "2235U",
    "name": "Cervera de Pisuerga",
    "region": "Palencia",
    "lat": "42.8706",
    "lon": "-4.5200"
  },
  {
    "aemet_id": "2401",
    "name": "Palencia, Observatorio",
    "region": "Palencia",
    "lat": "42.0050",
    "lon": "-4.5292"
  },
  {
    "aemet_id": "2491C",
    "name": "La Covatilla, Estación de esquí",
    "region": "Salamanca",
    "lat": "40.3550",
    "lon": "-5.6900"
  },
  {
    "aemet_id": "2946X",
    "name": "Saelices el Chico",
    "region": "Salamanca",
    "lat": "40.6350",
    "lon": "-6.6000"
  },
  {
    "aemet_id": "2867",
    "name": "Salamanca Aeropuerto",
    "region": "Salamanca",
    "lat": "40.9594",
    "lon": "-5.4983"
  },
  {
    "aemet_id": "2870",
    "name": "Salamanca",
    "region": "Salamanca",
    "lat": "40.9575",
    "lon": "-5.6622"
  },
  {
    "aemet_id": "2916A",
    "name": "Vitigudino",
    "region": "Salamanca",
    "lat": "41.0114",
    "lon": "-6.4378"
  },
  {
    "aemet_id": "2150H",
    "name": "La Pinilla, Estación de esquí",
    "region": "Segovia",
    "lat": "41.1919",
    "lon": "-3.4753"
  },
  {
    "aemet_id": "2465A",
    "name": "Segovia, Instituto",
    "region": "Segovia",
    "lat": "40.9467",
    "lon": "-4.1158"
  },
  {
    "aemet_id": "2465",
    "name": "Segovia",
    "region": "Segovia",
    "lat": "40.9453",
    "lon": "-4.1264"
  },
  {
    "aemet_id": "2030",
    "name": "Soria",
    "region": "Soria",
    "lat": "41.7750",
    "lon": "-2.4831"
  },
  {
    "aemet_id": "2503X",
    "name": "Olmedo",
    "region": "Valladolid",
    "lat": "41.3258",
    "lon": "-4.6869"
  },
  {
    "aemet_id": "2539",
    "name": "Valladolid Aeropuerto",
    "region": "Valladolid",
    "lat": "41.7119",
    "lon": "-4.8556"
  },
  {
    "aemet_id": "2422",
    "name": "Valladolid",
    "region": "Valladolid",
    "lat": "41.6408",
    "lon": "-4.7544"
  },
  {
    "aemet_id": "2755X",
    "name": "Benavente",
    "region": "Zamora",
    "lat": "42.0108",
    "lon": "-5.6667"
  },
  {
    "aemet_id": "2775X",
    "name": "Villardeciervos",
    "region": "Zamora",
    "lat": "41.9414",
    "lon": "-6.2797"
  },
  {
    "aemet_id": "2614",
    "name": "Zamora",
    "region": "Zamora",
    "lat": "41.5156",
    "lon": "-5.7353"
  },
  {
    "aemet_id": "3391",
    "name": "Sotillo de la Adrada",
    "region": "Avila",
    "lat": "40.2886",
    "lon": "-4.5908"
  },
  {
    "aemet_id": "3469",
    "name": "Cáceres, Ciudad",
    "region": "Caceres",
    "lat": "39.4758",
    "lon": "-6.3764"
  },
  {
    "aemet_id": "3469A",
    "name": "Cáceres",
    "region": "Caceres",
    "lat": "39.4714",
    "lon": "-6.3389"
  },
  {
    "aemet_id": "3526X",
    "name": "Coria",
    "region": "Caceres",
    "lat": "40.0036",
    "lon": "-6.5575"
  },
  {
    "aemet_id": "3434X",
    "name": "Navalmoral de la Mata",
    "region": "Caceres",
    "lat": "39.9458",
    "lon": "-5.5825"
  },
  {
    "aemet_id": "3519X",
    "name": "Plasencia",
    "region": "Caceres",
    "lat": "40.0431",
    "lon": "-6.0858"
  },
  {
    "aemet_id": "3463X",
    "name": "Trujillo",
    "region": "Caceres",
    "lat": "39.4825",
    "lon": "-5.8542"
  },
  {
    "aemet_id": "3576X",
    "name": "Valencia de Alcántara",
    "region": "Caceres",
    "lat": "39.4147",
    "lon": "-7.2311"
  },
  {
    "aemet_id": "3044X",
    "name": "Cañizares",
    "region": "Cuenca",
    "lat": "40.5303",
    "lon": "-2.1500"
  },
  {
    "aemet_id": "3094B",
    "name": "Tarancón",
    "region": "Cuenca",
    "lat": "40.0114",
    "lon": "-3.0214"
  },
  {
    "aemet_id": "3168C",
    "name": "Guadalajara, el Serranillo",
    "region": "Guadalajara",
    "lat": "40.6592",
    "lon": "-3.1733"
  },
  {
    "aemet_id": "3168A",
    "name": "Guadalajara, Instituto",
    "region": "Guadalajara",
    "lat": "40.6347",
    "lon": "-3.1667"
  },
  {
    "aemet_id": "3168D",
    "name": "Guadalajara",
    "region": "Guadalajara",
    "lat": "40.6303",
    "lon": "-3.1500"
  },
  {
    "aemet_id": "3013",
    "name": "Molina de Aragón",
    "region": "Guadalajara",
    "lat": "40.8417",
    "lon": "-1.8789"
  },
  {
    "aemet_id": "3130C",
    "name": "Sigüenza",
    "region": "Guadalajara",
    "lat": "41.0864",
    "lon": "-2.6181"
  },
  {
    "aemet_id": "3100B",
    "name": "Aranjuez",
    "region": "Madrid",
    "lat": "40.0672",
    "lon": "-3.5461"
  },
  {
    "aemet_id": "3110C",
    "name": "Buitrago del Lozoya",
    "region": "Madrid",
    "lat": "41.0069",
    "lon": "-3.6136"
  },
  {
    "aemet_id": "3191E",
    "name": "Colmenar Viejo",
    "region": "Madrid",
    "lat": "40.6961",
    "lon": "-3.7650"
  },
  {
    "aemet_id": "3200",
    "name": "Getafe",
    "region": "Madrid",
    "lat": "40.2994",
    "lon": "-3.7222"
  },
  {
    "aemet_id": "3129",
    "name": "Madrid Aeropuerto",
    "region": "Madrid",
    "lat": "40.4667",
    "lon": "-3.5556"
  },
  {
    "aemet_id": "3194U",
    "name": "Madrid, Ciudad Universitaria",
    "region": "Madrid",
    "lat": "40.4517",
    "lon": "-3.7242"
  },
  {
    "aemet_id": "3196",
    "name": "Madrid, Cuatro Vientos",
    "region": "Madrid",
    "lat": "40.3756",
    "lon": "-3.7861"
  },
  {
    "aemet_id": "3195",
    "name": "Madrid, Retiro",
    "region": "Madrid",
    "lat": "40.4119",
    "lon": "-3.6781"
  },
  {
    "aemet_id": "3266A",
    "name": "Puerto Alto del León",
    "region": "Madrid",
    "lat": "40.7064",
    "lon": "-4.1419"
  },
  {
    "aemet_id": "3338",
    "name": "Robledo de Chavela",
    "region": "Madrid",
    "lat": "40.4278",
    "lon": "-4.2500"
  },
  {
    "aemet_id": "3111D",
    "name": "Somosierra",
    "region": "Madrid",
    "lat": "41.1356",
    "lon": "-3.5803"
  },
  {
    "aemet_id": "3175",
    "name": "Torrejón de Ardoz",
    "region": "Madrid",
    "lat": "40.4886",
    "lon": "-3.4436"
  },
  {
    "aemet_id": "3298X",
    "name": "San Pablo de los Montes",
    "region": "Toledo",
    "lat": "39.5469",
    "lon": "-4.3506"
  },
  {
    "aemet_id": "3365A",
    "name": "Talavera de la Reina",
    "region": "Toledo",
    "lat": "39.9586",
    "lon": "-4.8636"
  },
  {
    "aemet_id": "3259",
    "name": "Toledo, Lorenzana",
    "region": "Toledo",
    "lat": "39.8594",
    "lon": "-4.0256"
  },
  {
    "aemet_id": "3260B",
    "name": "Toledo",
    "region": "Toledo",
    "lat": "39.8847",
    "lon": "-4.0453"
  },
  {
    "aemet_id": "4452",
    "name": "Badajoz Aeropuerto",
    "region": "Badajoz",
    "lat": "38.8833",
    "lon": "-6.8139"
  },
  {
    "aemet_id": "4358X",
    "name": "Don Benito",
    "region": "Badajoz",
    "lat": "38.9556",
    "lon": "-5.8806"
  },
  {
    "aemet_id": "4244X",
    "name": "Herrera del Duque",
    "region": "Badajoz",
    "lat": "39.1694",
    "lon": "-5.0622"
  },
  {
    "aemet_id": "4511C",
    "name": "Jerez de los Caballeros",
    "region": "Badajoz",
    "lat": "38.2986",
    "lon": "-6.7650"
  },
  {
    "aemet_id": "4386B",
    "name": "Llerena",
    "region": "Badajoz",
    "lat": "38.2317",
    "lon": "-6.0169"
  },
  {
    "aemet_id": "4410X",
    "name": "Mérida",
    "region": "Badajoz",
    "lat": "38.9158",
    "lon": "-6.3856"
  },
  {
    "aemet_id": "4121C",
    "name": "Ciudad Real, Instituto",
    "region": "Ciudad Real",
    "lat": "38.9878",
    "lon": "-3.9292"
  },
  {
    "aemet_id": "4121",
    "name": "Ciudad Real",
    "region": "Ciudad Real",
    "lat": "38.9892",
    "lon": "-3.9203"
  },
  {
    "aemet_id": "4220X",
    "name": "Puebla de Don Rodrigo",
    "region": "Ciudad Real",
    "lat": "39.0886",
    "lon": "-4.6164"
  },
  {
    "aemet_id": "4103X",
    "name": "Tomelloso",
    "region": "Ciudad Real",
    "lat": "39.1692",
    "lon": "-3.0075"
  },
  {
    "aemet_id": "4147X",
    "name": "Valdepeñas",
    "region": "Ciudad Real",
    "lat": "38.7506",
    "lon": "-3.3914"
  },
  {
    "aemet_id": "4148",
    "name": "Viso del Marqués",
    "region": "Ciudad Real",
    "lat": "38.5181",
    "lon": "-3.5667"
  },
  {
    "aemet_id": "4267X",
    "name": "Hinojosa del Duque",
    "region": "Cordoba",
    "lat": "38.4986",
    "lon": "-5.1211"
  },
  {
    "aemet_id": "4090Y",
    "name": "San Clemente",
    "region": "Cuenca",
    "lat": "39.4167",
    "lon": "-2.4206"
  },
  {
    "aemet_id": "4560Y",
    "name": "Alajar",
    "region": "Huelva",
    "lat": "37.8686",
    "lon": "-6.6750"
  },
  {
    "aemet_id": "4549Y",
    "name": "Ayamonte",
    "region": "Huelva",
    "lat": "37.1947",
    "lon": "-7.3950"
  },
  {
    "aemet_id": "4642E",
    "name": "Huelva, Ronda Este",
    "region": "Huelva",
    "lat": "37.2783",
    "lon": "-6.9117"
  },
  {
    "aemet_id": "4605",
    "name": "Huelva",
    "region": "Huelva",
    "lat": "37.2567",
    "lon": "-6.9497"
  },
  {
    "aemet_id": "4067",
    "name": "Madridejos",
    "region": "Toledo",
    "lat": "39.4919",
    "lon": "-3.5283"
  },
  {
    "aemet_id": "4061X",
    "name": "Quintanar de la Orden",
    "region": "Toledo",
    "lat": "39.5975",
    "lon": "-3.0469"
  },
  {
    "aemet_id": "5973",
    "name": "Cádiz",
    "region": "Cadiz",
    "lat": "36.4997",
    "lon": "-6.2578"
  },
  {
    "aemet_id": "5911A",
    "name": "Grazalema",
    "region": "Cadiz",
    "lat": "36.7606",
    "lon": "-5.3742"
  },
  {
    "aemet_id": "5960",
    "name": "Jerez de la Frontera Aeropuerto",
    "region": "Cadiz",
    "lat": "36.7506",
    "lon": "-6.0558"
  },
  {
    "aemet_id": "5910",
    "name": "Rota, Base Naval",
    "region": "Cadiz",
    "lat": "36.6389",
    "lon": "-6.3325"
  },
  {
    "aemet_id": "5972X",
    "name": "San Fernando",
    "region": "Cadiz",
    "lat": "36.4656",
    "lon": "-6.2056"
  },
  {
    "aemet_id": "5995B",
    "name": "Vejer de la Frontera",
    "region": "Cadiz",
    "lat": "36.2456",
    "lon": "-5.9650"
  },
  {
    "aemet_id": "5000A",
    "name": "Ceuta, Monte Hacho",
    "region": "Ceuta",
    "lat": "35.8956",
    "lon": "-5.2922"
  },
  {
    "aemet_id": "5000C",
    "name": "Ceuta",
    "region": "Ceuta",
    "lat": "35.8886",
    "lon": "-5.3469"
  },
  {
    "aemet_id": "5402",
    "name": "Córdoba Aeropuerto",
    "region": "Cordoba",
    "lat": "37.8489",
    "lon": "-4.8467"
  },
  {
    "aemet_id": "5427X",
    "name": "Doña Mencía",
    "region": "Cordoba",
    "lat": "37.5561",
    "lon": "-4.3539"
  },
  {
    "aemet_id": "5390Y",
    "name": "Villanueva de Córdoba",
    "region": "Cordoba",
    "lat": "38.3331",
    "lon": "-4.6089"
  },
  {
    "aemet_id": "5047E",
    "name": "Baza",
    "region": "Granada",
    "lat": "37.5058",
    "lon": "-2.7350"
  },
  {
    "aemet_id": "5530E",
    "name": "Granada Aeropuerto",
    "region": "Granada",
    "lat": "37.1897",
    "lon": "-3.7894"
  },
  {
    "aemet_id": "5514",
    "name": "Granada Base Aérea",
    "region": "Granada",
    "lat": "37.1372",
    "lon": "-3.6314"
  },
  {
    "aemet_id": "5051X",
    "name": "Huéscar",
    "region": "Granada",
    "lat": "37.8611",
    "lon": "-2.6528"
  },
  {
    "aemet_id": "5582A",
    "name": "Loja",
    "region": "Granada",
    "lat": "37.1611",
    "lon": "-4.1528"
  },
  {
    "aemet_id": "5860E",
    "name": "Moguer, el Arenosillo",
    "region": "Huelva",
    "lat": "37.0981",
    "lon": "-6.7381"
  },
  {
    "aemet_id": "5298X",
    "name": "Andújar",
    "region": "Jaen",
    "lat": "38.0231",
    "lon": "-4.0633"
  },
  {
    "aemet_id": "5181D",
    "name": "Arroyo del Ojanco",
    "region": "Jaen",
    "lat": "38.3147",
    "lon": "-2.8897"
  },
  {
    "aemet_id": "5038X",
    "name": "Cazorla",
    "region": "Jaen",
    "lat": "37.9158",
    "lon": "-3.0039"
  },
  {
    "aemet_id": "5270",
    "name": "Jaén, Instituto",
    "region": "Jaen",
    "lat": "37.7764",
    "lon": "-3.7889"
  },
  {
    "aemet_id": "5270B",
    "name": "Jaén",
    "region": "Jaen",
    "lat": "37.7775",
    "lon": "-3.8089"
  },
  {
    "aemet_id": "5246",
    "name": "Santa Elena",
    "region": "Jaen",
    "lat": "38.3444",
    "lon": "-3.5353"
  },
  {
    "aemet_id": "5192",
    "name": "Villarrodrigo",
    "region": "Jaen",
    "lat": "38.4892",
    "lon": "-2.6375"
  },
  {
    "aemet_id": "5704B",
    "name": "Cazalla de la Sierra",
    "region": "Sevilla",
    "lat": "37.9264",
    "lon": "-5.7697"
  },
  {
    "aemet_id": "5641X",
    "name": "Écija",
    "region": "Sevilla",
    "lat": "37.5161",
    "lon": "-5.0850"
  },
  {
    "aemet_id": "5612B",
    "name": "La Roda de Andalucía",
    "region": "Sevilla",
    "lat": "37.1944",
    "lon": "-4.7700"
  },
  {
    "aemet_id": "5796",
    "name": "Morón de la Frontera",
    "region": "Sevilla",
    "lat": "37.1644",
    "lon": "-5.6114"
  },
  {
    "aemet_id": "5783",
    "name": "Sevilla Aeropuerto",
    "region": "Sevilla",
    "lat": "37.4167",
    "lon": "-5.8792"
  },
  {
    "aemet_id": "6302A",
    "name": "Abla",
    "region": "Almeria",
    "lat": "37.1414",
    "lon": "-2.7800"
  },
  {
    "aemet_id": "6277B",
    "name": "Adra",
    "region": "Almeria",
    "lat": "36.7472",
    "lon": "-3.0206"
  },
  {
    "aemet_id": "6381",
    "name": "Alborán",
    "region": "Almeria",
    "lat": "35.9383",
    "lon": "-3.0361"
  },
  {
    "aemet_id": "6325O",
    "name": "Almería Aeropuerto",
    "region": "Almeria",
    "lat": "36.8464",
    "lon": "-2.3569"
  },
  {
    "aemet_id": "6297",
    "name": "Almería",
    "region": "Almeria",
    "lat": "36.8311",
    "lon": "-2.4556"
  },
  {
    "aemet_id": "6332X",
    "name": "Carboneras",
    "region": "Almeria",
    "lat": "36.9803",
    "lon": "-1.9036"
  },
  {
    "aemet_id": "6367B",
    "name": "Huércal-Overa",
    "region": "Almeria",
    "lat": "37.3906",
    "lon": "-1.9436"
  },
  {
    "aemet_id": "6293X",
    "name": "Roquetas de Mar",
    "region": "Almeria",
    "lat": "36.6869",
    "lon": "-2.7017"
  },
  {
    "aemet_id": "6001",
    "name": "Tarifa",
    "region": "Cadiz",
    "lat": "36.0139",
    "lon": "-5.5989"
  },
  {
    "aemet_id": "6268X",
    "name": "Motril",
    "region": "Granada",
    "lat": "36.7228",
    "lon": "-3.5303"
  },
  {
    "aemet_id": "6106X",
    "name": "Antequera",
    "region": "Malaga",
    "lat": "37.0294",
    "lon": "-4.7483"
  },
  {
    "aemet_id": "6058I",
    "name": "Estepona",
    "region": "Malaga",
    "lat": "36.4169",
    "lon": "-5.1550"
  },
  {
    "aemet_id": "6084X",
    "name": "Fuengirola",
    "region": "Malaga",
    "lat": "36.5386",
    "lon": "-4.6183"
  },
  {
    "aemet_id": "6155A",
    "name": "Málaga Aeropuerto",
    "region": "Malaga",
    "lat": "36.6661",
    "lon": "-4.4822"
  },
  {
    "aemet_id": "6156X",
    "name": "Málaga, Centro Meteorológico",
    "region": "Malaga",
    "lat": "36.7178",
    "lon": "-4.4817"
  },
  {
    "aemet_id": "6172O",
    "name": "Málaga, Puerto",
    "region": "Malaga",
    "lat": "36.7167",
    "lon": "-4.4197"
  },
  {
    "aemet_id": "6032B",
    "name": "Ronda",
    "region": "Malaga",
    "lat": "36.7497",
    "lon": "-5.1683"
  },
  {
    "aemet_id": "6205X",
    "name": "Torrox",
    "region": "Malaga",
    "lat": "36.7264",
    "lon": "-3.9572"
  },
  {
    "aemet_id": "6000A",
    "name": "Melilla",
    "region": "Melilla",
    "lat": "35.2764",
    "lon": "-2.9564"
  },
  {
    "aemet_id": "7096B",
    "name": "Hellín",
    "region": "Albacete",
    "lat": "38.5419",
    "lon": "-1.7031"
  },
  {
    "aemet_id": "7247X",
    "name": "El Pinós/Pinoso",
    "region": "Alicante",
    "lat": "38.3997",
    "lon": "-1.0381"
  },
  {
    "aemet_id": "7002Y",
    "name": "Águilas",
    "region": "Murcia",
    "lat": "37.4172",
    "lon": "-1.5869"
  },
  {
    "aemet_id": "7228",
    "name": "Alcantarilla, Base Aérea",
    "region": "Murcia",
    "lat": "37.9578",
    "lon": "-1.2286"
  },
  {
    "aemet_id": "7119B",
    "name": "Caravaca de la Cruz",
    "region": "Murcia",
    "lat": "38.1025",
    "lon": "-1.8772"
  },
  {
    "aemet_id": "7012C",
    "name": "Cartagena",
    "region": "Murcia",
    "lat": "37.6011",
    "lon": "-0.9878"
  },
  {
    "aemet_id": "7145D",
    "name": "Cieza",
    "region": "Murcia",
    "lat": "38.2328",
    "lon": "-1.3806"
  },
  {
    "aemet_id": "7209",
    "name": "Lorca",
    "region": "Murcia",
    "lat": "37.6547",
    "lon": "-1.6872"
  },
  {
    "aemet_id": "7178I",
    "name": "Murcia",
    "region": "Murcia",
    "lat": "38.0019",
    "lon": "-1.1708"
  },
  {
    "aemet_id": "7031",
    "name": "San Javier Aeropuerto",
    "region": "Murcia",
    "lat": "37.7889",
    "lon": "-0.8033"
  },
  {
    "aemet_id": "7031X",
    "name": "San Javier Aeropuerto",
    "region": "Murcia",
    "lat": "37.7783",
    "lon": "-0.8058"
  },
  {
    "aemet_id": "7275C",
    "name": "Yecla",
    "region": "Murcia",
    "lat": "38.6017",
    "lon": "-1.1597"
  },
  {
    "aemet_id": "8175",
    "name": "Albacete Base Aérea",
    "region": "Albacete",
    "lat": "38.9542",
    "lon": "-1.8564"
  },
  {
    "aemet_id": "8178D",
    "name": "Albacete",
    "region": "Albacete",
    "lat": "39.0056",
    "lon": "-1.8622"
  },
  {
    "aemet_id": "8177A",
    "name": "Chinchilla",
    "region": "Albacete",
    "lat": "38.9358",
    "lon": "-1.6600"
  },
  {
    "aemet_id": "8025",
    "name": "Alacant/Alicante",
    "region": "Alicante",
    "lat": "38.3725",
    "lon": "-0.4942"
  },
  {
    "aemet_id": "8019",
    "name": "Alicante-Elche Aeropuerto",
    "region": "Alicante",
    "lat": "38.2828",
    "lon": "-0.5708"
  },
  {
    "aemet_id": "8050X",
    "name": "Jávea/ Xàbia",
    "region": "Alicante",
    "lat": "38.7836",
    "lon": "0.1678"
  },
  {
    "aemet_id": "8500A",
    "name": "Castelló - Almassora",
    "region": "Castellon",
    "lat": "39.9572",
    "lon": "-0.0719"
  },
  {
    "aemet_id": "8501",
    "name": "Castelló de la Plana",
    "region": "Castellon",
    "lat": "39.9892",
    "lon": "-0.0322"
  },
  {
    "aemet_id": "8489X",
    "name": "Villafranca del Cid/Villafranca",
    "region": "Castellon",
    "lat": "40.4333",
    "lon": "-0.2558"
  },
  {
    "aemet_id": "8523X",
    "name": "Vinaròs",
    "region": "Castellon",
    "lat": "40.5542",
    "lon": "0.4297"
  },
  {
    "aemet_id": "8096",
    "name": "Cuenca",
    "region": "Cuenca",
    "lat": "40.0672",
    "lon": "-2.1319"
  },
  {
    "aemet_id": "8368U",
    "name": "Teruel",
    "region": "Teruel",
    "lat": "40.3506",
    "lon": "-1.1242"
  },
  {
    "aemet_id": "8058X",
    "name": "Oliva",
    "region": "Valencia",
    "lat": "38.9289",
    "lon": "-0.0958"
  },
  {
    "aemet_id": "8325X",
    "name": "Polinyà de Xúquer",
    "region": "Valencia",
    "lat": "39.1847",
    "lon": "-0.3719"
  },
  {
    "aemet_id": "8309X",
    "name": "Utiel",
    "region": "Valencia",
    "lat": "39.5756",
    "lon": "-1.2447"
  },
  {
    "aemet_id": "8414A",
    "name": "Valencia Aeropuerto",
    "region": "Valencia",
    "lat": "39.4850",
    "lon": "-0.4747"
  },
  {
    "aemet_id": "8416Y",
    "name": "València, Viveros",
    "region": "Valencia",
    "lat": "39.4806",
    "lon": "-0.3664"
  },
  {
    "aemet_id": "8416",
    "name": "València",
    "region": "Valencia",
    "lat": "39.4806",
    "lon": "-0.3664"
  },
  {
    "aemet_id": "8293X",
    "name": "Xàtiva",
    "region": "Valencia",
    "lat": "39.0017",
    "lon": "-0.5236"
  },
  {
    "aemet_id": "9091O",
    "name": "Foronda-Txokiza",
    "region": "Araba/Alava",
    "lat": "42.8819",
    "lon": "-2.7350"
  },
  {
    "aemet_id": "9087",
    "name": "Vitoria Aeródromo",
    "region": "Araba/Alava",
    "lat": "42.8497",
    "lon": "-2.6561"
  },
  {
    "aemet_id": "9091R",
    "name": "Vitoria Gasteiz Aeropuerto",
    "region": "Araba/Alava",
    "lat": "42.8719",
    "lon": "-2.7328"
  },
  {
    "aemet_id": "9111",
    "name": "Belorado",
    "region": "Burgos",
    "lat": "42.4211",
    "lon": "-3.1703"
  },
  {
    "aemet_id": "9051",
    "name": "Medina de Pomar",
    "region": "Burgos",
    "lat": "42.9200",
    "lon": "-3.4828"
  },
  {
    "aemet_id": "9001D",
    "name": "Reinosa",
    "region": "Cantabria",
    "lat": "42.9919",
    "lon": "-4.1606"
  },
  {
    "aemet_id": "9019B",
    "name": "Valderredible, Polientes",
    "region": "Cantabria",
    "lat": "42.8064",
    "lon": "-3.9339"
  },
  {
    "aemet_id": "9563X",
    "name": "Castellfort",
    "region": "Castellon",
    "lat": "40.4986",
    "lon": "-0.1867"
  },
  {
    "aemet_id": "9585",
    "name": "La Molina",
    "region": "Girona",
    "lat": "42.3325",
    "lon": "1.9394"
  },
  {
    "aemet_id": "9208E",
    "name": "Aragüés del Puerto",
    "region": "Huesca",
    "lat": "42.7089",
    "lon": "-0.6731"
  },
  {
    "aemet_id": "9784P",
    "name": "Bielsa",
    "region": "Huesca",
    "lat": "42.6300",
    "lon": "0.2247"
  },
  {
    "aemet_id": "9898",
    "name": "Huesca, Aeropuerto",
    "region": "Huesca",
    "lat": "42.0844",
    "lon": "-0.3256"
  },
  {
    "aemet_id": "9201K",
    "name": "Jaca",
    "region": "Huesca",
    "lat": "42.5789",
    "lon": "-0.5469"
  },
  {
    "aemet_id": "9814A",
    "name": "Torla",
    "region": "Huesca",
    "lat": "42.6267",
    "lon": "-0.1117"
  },
  {
    "aemet_id": "9170",
    "name": "Logroño, Aeropuerto",
    "region": "La Rioja",
    "lat": "42.4522",
    "lon": "-2.3311"
  },
  {
    "aemet_id": "9619",
    "name": "La Seu D'urgell",
    "region": "Lleida",
    "lat": "42.3547",
    "lon": "1.4631"
  },
  {
    "aemet_id": "9771",
    "name": "Lleida, Observatorio",
    "region": "Lleida",
    "lat": "41.6172",
    "lon": "0.6211"
  },
  {
    "aemet_id": "9771C",
    "name": "Lleida",
    "region": "Lleida",
    "lat": "41.6261",
    "lon": "0.5981"
  },
  {
    "aemet_id": "9990X",
    "name": "Naut Aran, Arties",
    "region": "Lleida",
    "lat": "42.7003",
    "lon": "0.8769"
  },
  {
    "aemet_id": "9698U",
    "name": "Talarn",
    "region": "Lleida",
    "lat": "42.2053",
    "lon": "0.8653"
  },
  {
    "aemet_id": "9720X",
    "name": "Tàrrega",
    "region": "Lleida",
    "lat": "41.6506",
    "lon": "1.1494"
  },
  {
    "aemet_id": "9263X",
    "name": "Aranguren, Ilundain",
    "region": "Navarra",
    "lat": "42.7761",
    "lon": "-1.5325"
  },
  {
    "aemet_id": "9294E",
    "name": "Bardenas Reales, Base Aérea",
    "region": "Navarra",
    "lat": "42.1986",
    "lon": "-1.4753"
  },
  {
    "aemet_id": "9283X",
    "name": "Cadreita",
    "region": "Navarra",
    "lat": "42.2069",
    "lon": "-1.7114"
  },
  {
    "aemet_id": "9263D",
    "name": "Pamplona, Aeropuerto",
    "region": "Navarra",
    "lat": "42.7769",
    "lon": "-1.6500"
  },
  {
    "aemet_id": "9262",
    "name": "Pamplona",
    "region": "Navarra",
    "lat": "42.8178",
    "lon": "-1.6383"
  },
  {
    "aemet_id": "9981A",
    "name": "Estación de Tortosa (roquetes)",
    "region": "Tarragona",
    "lat": "40.8203",
    "lon": "0.4933"
  },
  {
    "aemet_id": "9987P",
    "name": "Sant Jaume D'enveja",
    "region": "Tarragona",
    "lat": "40.6992",
    "lon": "0.8100"
  },
  {
    "aemet_id": "9573X",
    "name": "Alcañiz",
    "region": "Teruel",
    "lat": "41.0581",
    "lon": "-0.1417"
  },
  {
    "aemet_id": "9381",
    "name": "Calamocha, Aeródromo",
    "region": "Teruel",
    "lat": "40.8650",
    "lon": "-1.3050"
  },
  {
    "aemet_id": "9381I",
    "name": "Calamocha",
    "region": "Teruel",
    "lat": "40.9261",
    "lon": "-1.2933"
  },
  {
    "aemet_id": "9569A",
    "name": "Calanda",
    "region": "Teruel",
    "lat": "40.9467",
    "lon": "-0.2378"
  },
  {
    "aemet_id": "9576C",
    "name": "Bujaraloz",
    "region": "Zaragoza",
    "lat": "41.5225",
    "lon": "-0.1744"
  },
  {
    "aemet_id": "9394X",
    "name": "Calatayud",
    "region": "Zaragoza",
    "lat": "41.3311",
    "lon": "-1.6453"
  },
  {
    "aemet_id": "9390",
    "name": "Daroca",
    "region": "Zaragoza",
    "lat": "41.1144",
    "lon": "-1.4100"
  },
  {
    "aemet_id": "9244X",
    "name": "Sos del Rey Católico",
    "region": "Zaragoza",
    "lat": "42.4908",
    "lon": "-1.2136"
  },
  {
    "aemet_id": "9434",
    "name": "Zaragoza, Aeropuerto",
    "region": "Zaragoza",
    "lat": "41.6606",
    "lon": "-1.0042"
  },
  {
    "aemet_id": "9434P",
    "name": "Zaragoza, Valdespartera",
    "region": "Zaragoza",
    "lat": "41.6208",
    "lon": "-0.9350"
  },
  {
    "aemet_id": "B569X",
    "name": "Capdepera",
    "region": "Illes Balears",
    "lat": "39.7167",
    "lon": "3.4781"
  },
  {
    "aemet_id": "B013X",
    "name": "Escorca, Lluc",
    "region": "Illes Balears",
    "lat": "39.8233",
    "lon": "2.8858"
  },
  {
    "aemet_id": "B954",
    "name": "Ibiza, Aeropuerto",
    "region": "Illes Balears",
    "lat": "38.8764",
    "lon": "1.3844"
  },
  {
    "aemet_id": "B893",
    "name": "Menorca, Aeropuerto",
    "region": "Illes Balears",
    "lat": "39.8547",
    "lon": "4.2156"
  },
  {
    "aemet_id": "B278",
    "name": "Palma de Mallorca, Aeropuerto",
    "region": "Illes Balears",
    "lat": "39.5608",
    "lon": "2.7367"
  },
  {
    "aemet_id": "B228",
    "name": "Palma, Puerto",
    "region": "Illes Balears",
    "lat": "39.5553",
    "lon": "2.6253"
  },
  {
    "aemet_id": "B346X",
    "name": "Porreres",
    "region": "Illes Balears",
    "lat": "39.5217",
    "lon": "3.0192"
  },
  {
    "aemet_id": "B434X",
    "name": "Portocolom",
    "region": "Illes Balears",
    "lat": "39.4144",
    "lon": "3.2717"
  },
  {
    "aemet_id": "B691Y",
    "name": "Sa Pobla",
    "region": "Illes Balears",
    "lat": "39.7492",
    "lon": "3.0167"
  },
  {
    "aemet_id": "B248",
    "name": "Sierra de Alfabia, Bunyola",
    "region": "Illes Balears",
    "lat": "39.7350",
    "lon": "2.7131"
  },
  {
    "aemet_id": "C249I",
    "name": "Fuerteventura Aeropuerto",
    "region": "Las Palmas",
    "lat": "28.4447",
    "lon": "-13.8631"
  },
  {
    "aemet_id": "C649I",
    "name": "Gran Canaria Aeropuerto",
    "region": "Las Palmas",
    "lat": "27.9178",
    "lon": "-15.3953"
  },
  {
    "aemet_id": "C619I",
    "name": "La Aldea de San Nicolás",
    "region": "Las Palmas",
    "lat": "28.0008",
    "lon": "-15.8139"
  },
  {
    "aemet_id": "C029O",
    "name": "Lanzarote Aeropuerto",
    "region": "Las Palmas",
    "lat": "28.9519",
    "lon": "-13.6003"
  },
  {
    "aemet_id": "C659M",
    "name": "Las Palmas de Gran Canaria, Pl. de la Feria",
    "region": "Las Palmas",
    "lat": "28.1131",
    "lon": "-15.4214"
  },
  {
    "aemet_id": "C659H",
    "name": "Las Palmas de Gran Canaria, San Cristobal",
    "region": "Las Palmas",
    "lat": "28.0897",
    "lon": "-15.4161"
  },
  {
    "aemet_id": "C689E",
    "name": "Maspalomas",
    "region": "Las Palmas",
    "lat": "27.7358",
    "lon": "-15.5958"
  },
  {
    "aemet_id": "C629X",
    "name": "Mogán, Puerto",
    "region": "Las Palmas",
    "lat": "27.8164",
    "lon": "-15.7642"
  },
  {
    "aemet_id": "C229J",
    "name": "Pájara",
    "region": "Las Palmas",
    "lat": "28.0492",
    "lon": "-14.3581"
  },
  {
    "aemet_id": "C839I",
    "name": "Teguise",
    "region": "Las Palmas",
    "lat": "29.2319",
    "lon": "-13.5019"
  },
  {
    "aemet_id": "C439J",
    "name": "Güímar",
    "region": "Sta. Cruz de Tenerife",
    "lat": "28.3183",
    "lon": "-16.3822"
  },
  {
    "aemet_id": "C929I",
    "name": "Hierro Aeropuerto",
    "region": "Sta. Cruz de Tenerife",
    "lat": "27.8189",
    "lon": "-17.8889"
  },
  {
    "aemet_id": "C430E",
    "name": "Izaña",
    "region": "Sta. Cruz de Tenerife",
    "lat": "28.3089",
    "lon": "-16.4994"
  },
  {
    "aemet_id": "C139E",
    "name": "La Palma Aeropuerto",
    "region": "Sta. Cruz de Tenerife",
    "lat": "28.6331",
    "lon": "-17.7550"
  },
  {
    "aemet_id": "C459Z",
    "name": "Puerto de la Cruz",
    "region": "Sta. Cruz de Tenerife",
    "lat": "28.4181",
    "lon": "-16.5481"
  },
  {
    "aemet_id": "C329Z",
    "name": "San Sebastián de la Gomera",
    "region": "Sta. Cruz de Tenerife",
    "lat": "28.0897",
    "lon": "-17.1114"
  },
  {
    "aemet_id": "C449C",
    "name": "Sta.cruz de Tenerife",
    "region": "Sta. Cruz de Tenerife",
    "lat": "28.4633",
    "lon": "-16.2553"
  },
  {
    "aemet_id": "C129Z",
    "name": "Tazacorte",
    "region": "Sta. Cruz de Tenerife",
    "lat": "28.5958",
    "lon": "-17.9153"
  },
  {
    "aemet_id": "C447A",
    "name": "Tenerife Norte Aeropuerto",
    "region": "Sta. Cruz de Tenerife",
    "lat": "28.4775",
    "lon": "-16.3294"
  },
  {
    "aemet_id": "C429I",
    "name": "Tenerife Sur Aeropuerto",
    "region": "Sta. Cruz de Tenerife",
    "lat": "28.0469",
    "lon": "-16.5611"
  }
]